41782.40554868,1500,SV
41782.40554766,2779231.343,296450.138,9.450,"",0,$GPGGA,014359.00,2507.24495327,N,12127.63742553,E,2,07,1.2,9.450,M,14.906,M,6.0,0630*46
41782.40555924,2779231.344,296450.138,9.451,"",0,$GPGGA,014400.00,2507.24495334,N,12127.63742548,E,2,07,1.2,9.451,M,14.906,M,5.8,0630*4F
41782.40557081,2779231.344,296450.138,9.451,"",0,$GPGGA,014401.00,2507.24495341,N,12127.63742545,E,2,07,1.2,9.451,M,14.906,M,6.2,0630*48
41782.40558238,2779231.344,296450.138,9.452,"",0,$GPGGA,014402.00,2507.24495347,N,12127.63742539,E,2,07,1.2,9.452,M,14.906,M,6.0,0630*47
41782.40559396,2779231.344,296450.138,9.453,"",0,$GPGGA,014403.00,2507.24495354,N,12127.63742535,E,2,07,1.2,9.453,M,14.906,M,7.0,0630*48
41782.40560553,2779231.344,296450.138,9.453,"",0,$GPGGA,014404.00,2507.24495361,N,12127.63742534,E,2,07,1.2,9.453,M,14.906,M,8.0,0630*47
41782.40561711,2779231.344,296450.138,9.454,"",0,$GPGGA,014405.00,2507.24495369,N,12127.63742531,E,2,07,1.2,9.454,M,14.906,M,9.0,0630*4D
41782.40562868,2779231.344,296450.138,9.455,"",0,$GPGGA,014406.00,2507.24495376,N,12127.63742529,E,2,07,1.2,9.455,M,14.906,M,8.8,0630*41
41782.40564025,2779231.344,296450.138,9.455,"",0,$GPGGA,014407.00,2507.24495384,N,12127.63742527,E,2,07,1.2,9.455,M,14.906,M,5.0,0630*46
41782.40565183,2779231.345,296450.138,9.456,"",0,$GPGGA,014408.00,2507.24495392,N,12127.63742524,E,2,07,1.2,9.456,M,14.906,M,4.8,0630*47
41782.40566340,2779231.345,296450.138,9.457,"",0,$GPGGA,014409.00,2507.24495401,N,12127.63742518,E,2,07,1.2,9.457,M,14.906,M,5.2,0630*4E
41782.40567498,2779231.345,296450.138,9.457,"",0,$GPGGA,014410.00,2507.24495410,N,12127.63742512,E,2,07,1.2,9.457,M,14.906,M,5.0,0630*4E
41782.40568655,2779231.345,296450.138,9.458,"",0,$GPGGA,014411.00,2507.24495419,N,12127.63742507,E,2,07,1.2,9.458,M,14.906,M,4.8,0630*44
41782.40569813,2779231.345,296450.138,9.459,"",0,$GPGGA,014412.00,2507.24495428,N,12127.63742501,E,2,07,1.2,9.459,M,14.906,M,5.2,0630*49
41782.40570970,2779231.345,296450.137,9.459,"",0,$GPGGA,014413.00,2507.24495437,N,12127.63742496,E,2,07,1.2,9.459,M,14.906,M,6.2,0630*4A
41782.40572127,2779231.346,296450.137,9.460,"",0,$GPGGA,014414.00,2507.24495446,N,12127.63742488,E,2,07,1.2,9.460,M,14.906,M,7.2,0630*4F
41782.40573285,2779231.346,296450.137,9.461,"",0,$GPGGA,014415.00,2507.24495455,N,12127.63742482,E,2,07,1.2,9.461,M,14.906,M,8.2,0630*48
41782.40574442,2779231.346,296450.137,9.461,"",0,$GPGGA,014416.00,2507.24495464,N,12127.63742475,E,2,07,1.2,9.461,M,14.906,M,9.2,0630*40
41782.40575600,2779231.346,296450.137,9.462,"",0,$GPGGA,014417.00,2507.24495473,N,12127.63742468,E,2,07,1.2,9.462,M,14.906,M,10.2,0630*70
41782.40576757,2779231.346,296450.137,9.463,"",0,$GPGGA,014418.00,2507.24495481,N,12127.63742461,E,2,07,1.2,9.463,M,14.906,M,10.0,0630*78
41782.40577914,2779231.346,296450.137,9.463,"",0,$GPGGA,014419.00,2507.24495488,N,12127.63742453,E,2,07,1.2,9.463,M,14.906,M,6.2,0630*44
41782.40579072,2779231.347,296450.137,9.464,"",0,$GPGGA,014420.00,2507.24495495,N,12127.63742445,E,2,07,1.2,9.464,M,14.906,M,6.0,0630*40
41782.40580229,2779231.347,296450.136,9.464,"",0,$GPGGA,014421.00,2507.24495502,N,12127.63742437,E,2,07,1.2,9.464,M,14.906,M,7.0,0630*4A
41782.40581387,2779231.347,296450.136,9.465,"",0,$GPGGA,014422.00,2507.24495509,N,12127.63742429,E,2,07,1.2,9.465,M,14.906,M,8.0,0630*43
41782.40582544,2779231.347,296450.136,9.466,"",0,$GPGGA,014423.00,2507.24495517,N,12127.63742421,E,2,07,1.2,9.466,M,14.906,M,9.0,0630*47
41782.40583701,2779231.347,296450.136,9.466,"",0,$GPGGA,014424.00,2507.24495525,N,12127.63742414,E,2,07,1.2,9.466,M,14.906,M,8.8,0630*4E
41782.40584859,2779231.347,296450.136,9.467,"",0,$GPGGA,014425.00,2507.24495533,N,12127.63742407,E,2,07,1.2,9.467,M,14.906,M,9.2,0630*40
41782.40586016,2779231.347,296450.136,9.467,"",0,$GPGGA,014426.00,2507.24495542,N,12127.63742400,E,2,07,1.2,9.467,M,14.906,M,4.8,0630*45
41782.40587174,2779231.348,296450.136,9.468,"",0,$GPGGA,014427.00,2507.24495551,N,12127.63742393,E,2,07,1.2,9.468,M,14.906,M,5.2,0630*4F
41782.40588331,2779231.348,296450.136,9.469,"",0,$GPGGA,014428.00,2507.24495560,N,12127.63742384,E,2,07,1.2,9.469,M,14.906,M,5.0,0630*47
41782.40589488,2779231.348,296450.135,9.469,"",0,$GPGGA,014429.00,2507.24495570,N,12127.63742375,E,2,07,1.2,9.469,M,14.906,M,6.0,0630*4A
41782.40590646,2779231.348,296450.135,9.470,"",0,$GPGGA,014430.00,2507.24495580,N,12127.63742365,E,2,07,1.2,9.470,M,14.906,M,7.0,0630*45
41782.40591803,2779231.348,296450.135,9.470,"",0,$GPGGA,014431.00,2507.24495590,N,12127.63742354,E,2,07,1.2,9.470,M,14.906,M,6.8,0630*4E
41782.40592961,2779231.348,296450.135,9.471,"",0,$GPGGA,014432.00,2507.24495600,N,12127.63742344,E,2,07,1.2,9.471,M,14.906,M,4.8,0630*45
41782.40594118,2779231.349,296450.135,9.472,"",0,$GPGGA,014433.00,2507.24495610,N,12127.63742334,E,2,07,1.2,9.472,M,14.906,M,5.2,0630*4A
41782.40595275,2779231.349,296450.135,9.472,"",0,$GPGGA,014434.00,2507.24495621,N,12127.63742325,E,2,07,1.2,9.472,M,14.906,M,6.2,0630*4C
41782.40596433,2779231.349,296450.134,9.473,"",0,$GPGGA,014435.00,2507.24495632,N,12127.63742316,E,2,07,1.2,9.473,M,14.906,M,6.0,0630*4C
41782.40597590,2779231.349,296450.134,9.473,"",0,$GPGGA,014436.00,2507.24495642,N,12127.63742308,E,2,07,1.2,9.473,M,14.906,M,5.8,0630*4C
41782.40598748,2779231.349,296450.134,9.474,"",0,$GPGGA,014437.00,2507.24495654,N,12127.63742299,E,2,07,1.2,9.474,M,14.906,M,6.2,0630*4D
41782.40599905,2779231.350,296450.134,9.475,"",0,$GPGGA,014438.00,2507.24495666,N,12127.63742289,E,2,07,1.2,9.475,M,14.906,M,6.0,0630*41
41782.40601063,2779231.350,296450.134,9.475,"",0,$GPGGA,014439.00,2507.24495679,N,12127.63742280,E,2,07,1.2,9.475,M,14.906,M,5.8,0630*4C
41782.40602220,2779231.350,296450.134,9.476,"",0,$GPGGA,014440.00,2507.24495691,N,12127.63742272,E,2,07,1.2,9.476,M,14.906,M,6.2,0630*43
41782.40603377,2779231.350,296450.134,9.476,"",0,$GPGGA,014441.00,2507.24495704,N,12127.63742264,E,2,07,1.2,9.476,M,14.906,M,6.0,0630*4A
41782.40604535,2779231.351,296450.133,9.477,"",0,$GPGGA,014442.00,2507.24495718,N,12127.63742256,E,2,07,1.2,9.477,M,14.906,M,7.0,0630*45
41782.40605692,2779231.351,296450.133,9.478,"",0,$GPGGA,014443.00,2507.24495733,N,12127.63742250,E,2,07,1.2,9.478,M,14.906,M,8.0,0630*4B
41782.40606850,2779231.351,296450.133,9.478,"",0,$GPGGA,014444.00,2507.24495747,N,12127.63742244,E,2,07,1.2,9.478,M,14.906,M,9.0,0630*4B
41782.40608007,2779231.351,296450.133,9.479,"",0,$GPGGA,014445.00,2507.24495762,N,12127.63742239,E,2,07,1.2,9.479,M,14.906,M,10.0,0630*7E
41782.40609164,2779231.352,296450.133,9.479,"",0,$GPGGA,014446.00,2507.24495777,N,12127.63742233,E,2,07,1.2,9.479,M,14.906,M,11.0,0630*72
41782.40610322,2779231.352,296450.133,9.480,"",0,$GPGGA,014447.00,2507.24495793,N,12127.63742228,E,2,07,1.2,9.480,M,14.906,M,10.8,0630*7C
41782.40611479,2779231.352,296450.133,9.480,"",0,$GPGGA,014448.00,2507.24495809,N,12127.63742222,E,2,07,1.2,9.480,M,14.906,M,11.8,0630*74
41782.40612637,2779231.353,296450.133,9.481,"",0,$GPGGA,014449.00,2507.24495825,N,12127.63742217,E,2,07,1.2,9.481,M,14.906,M,12.8,0630*7F
41782.40613794,2779231.353,296450.133,9.481,"",0,$GPGGA,014450.00,2507.24495843,N,12127.63742210,E,2,07,1.2,9.481,M,14.906,M,9.0,0630*42
41782.40614951,2779231.353,296450.133,9.482,"",0,$GPGGA,014451.00,2507.24495861,N,12127.63742204,E,2,07,1.2,9.482,M,14.906,M,7.0,0630*4B
41782.40616109,2779231.354,296450.132,9.482,"",0,$GPGGA,014452.00,2507.24495879,N,12127.63742198,E,2,07,1.2,9.482,M,14.906,M,8.0,0630*48
41782.40617266,2779231.354,296450.132,9.482,"",0,$GPGGA,014453.00,2507.24495899,N,12127.63742191,E,2,07,1.2,9.482,M,14.906,M,9.0,0630*4F
41782.40618424,2779231.354,296450.132,9.483,"",0,$GPGGA,014454.00,2507.24495920,N,12127.63742184,E,2,07,1.2,9.483,M,14.906,M,8.8,0630*47
41782.40619581,2779231.355,296450.132,9.483,"",0,$GPGGA,014455.00,2507.24495942,N,12127.63742178,E,2,07,1.2,9.483,M,14.906,M,5.0,0630*44
41782.40620738,2779231.355,296450.132,9.484,"",0,$GPGGA,014456.00,2507.24495965,N,12127.63742172,E,2,07,1.2,9.484,M,14.906,M,4.8,0630*46
41782.40621896,2779231.356,296450.132,9.484,"",0,$GPGGA,014457.00,2507.24495988,N,12127.63742166,E,2,07,1.2,9.484,M,14.906,M,5.2,0630*4A
41782.40623053,2779231.356,296450.132,9.485,"",0,$GPGGA,014458.00,2507.24496011,N,12127.63742161,E,2,07,1.2,9.485,M,14.906,M,6.2,0630*4A
41782.40624211,2779231.356,296450.132,9.485,"",0,$GPGGA,014459.00,2507.24496034,N,12127.63742156,E,2,07,1.2,9.485,M,14.906,M,6.0,0630*4A
41782.40625368,2779231.357,296450.132,9.485,"",0,$GPGGA,014500.00,2507.24496058,N,12127.63742150,E,2,07,1.2,9.485,M,14.906,M,5.8,0630*40
41782.40626525,2779231.357,296450.132,9.486,"",0,$GPGGA,014501.00,2507.24496082,N,12127.63742144,E,2,07,1.2,9.486,M,14.906,M,6.8,0630*43
41782.40627683,2779231.358,296450.131,9.486,"",0,$GPGGA,014502.00,2507.24496107,N,12127.63742138,E,2,07,1.1,9.486,M,14.906,M,7.8,0630*45
41782.40628840,2779231.358,296450.131,9.486,"",0,$GPGGA,014503.00,2507.24496132,N,12127.63742131,E,2,07,1.1,9.486,M,14.906,M,8.2,0630*4E
41782.40629998,2779231.359,296450.131,9.487,"",0,$GPGGA,014504.00,2507.24496158,N,12127.63742125,E,2,07,1.1,9.487,M,14.906,M,6.2,0630*4F
41782.40631155,2779231.359,296450.131,9.487,"",0,$GPGGA,014505.00,2507.24496183,N,12127.63742119,E,2,07,1.1,9.487,M,14.906,M,7.2,0630*46
41782.40632312,2779231.360,296450.131,9.488,"",0,$GPGGA,014506.00,2507.24496210,N,12127.63742113,E,2,07,1.1,9.488,M,14.906,M,8.2,0630*46
41782.40633470,2779231.360,296450.131,9.488,"",0,$GPGGA,014507.00,2507.24496236,N,12127.63742106,E,2,07,1.1,9.488,M,14.906,M,8.0,0630*45
41782.40634627,2779231.361,296450.131,9.488,"",0,$GPGGA,014508.00,2507.24496262,N,12127.63742098,E,2,07,1.1,9.488,M,14.906,M,4.8,0630*49
41782.40635785,2779231.361,296450.131,9.489,"",0,$GPGGA,014509.00,2507.24496289,N,12127.63742090,E,2,07,1.1,9.489,M,14.906,M,5.2,0630*4F
41782.40636942,2779231.362,296450.130,9.489,"",0,$GPGGA,014510.00,2507.24496316,N,12127.63742083,E,2,07,1.1,9.489,M,14.906,M,5.0,0630*40
41782.40638100,2779231.362,296450.130,9.489,"",0,$GPGGA,014511.00,2507.24496342,N,12127.63742076,E,2,07,1.1,9.489,M,14.906,M,6.0,0630*49
41782.40639257,2779231.363,296450.130,9.490,"",0,$GPGGA,014512.00,2507.24496369,N,12127.63742073,E,2,07,1.1,9.490,M,14.906,M,5.8,0630*45
41782.40640414,2779231.363,296450.130,9.490,"",0,$GPGGA,014513.00,2507.24496395,N,12127.63742068,E,2,07,1.1,9.490,M,14.906,M,6.8,0630*4E
41782.40641572,2779231.364,296450.130,9.491,"",0,$GPGGA,014514.00,2507.24496419,N,12127.63742064,E,2,07,1.1,9.491,M,14.906,M,7.8,0630*46
41782.40642729,2779231.364,296450.130,9.491,"",0,$GPGGA,014515.00,2507.24496439,N,12127.63742059,E,2,07,1.1,9.491,M,14.906,M,8.2,0630*4E
41782.40643887,2779231.364,296450.130,9.491,"",0,$GPGGA,014516.00,2507.24496455,N,12127.63742052,E,2,07,1.1,9.491,M,14.906,M,8.0,0630*4E
41782.40645044,2779231.364,296450.130,9.492,"",0,$GPGGA,014517.00,2507.24496468,N,12127.63742047,E,2,07,1.1,9.492,M,14.906,M,6.0,0630*48
41782.40646201,2779231.365,296450.130,9.492,"",0,$GPGGA,014518.00,2507.24496479,N,12127.63742042,E,2,07,1.1,9.492,M,14.906,M,5.8,0630*49
41782.40647359,2779231.365,296450.130,9.492,"",0,$GPGGA,014519.00,2507.24496488,N,12127.63742038,E,2,07,1.1,9.492,M,14.906,M,6.2,0630*42
41782.40648516,2779231.365,296450.130,9.493,"",0,$GPGGA,014520.00,2507.24496495,N,12127.63742033,E,2,07,1.1,9.493,M,14.906,M,4.8,0630*46
41782.40649674,2779231.365,296450.130,9.493,"",0,$GPGGA,014521.00,2507.24496502,N,12127.63742028,E,2,07,1.1,9.493,M,14.906,M,5.2,0630*49
41782.40650831,2779231.365,296450.129,9.494,"",0,$GPGGA,014522.00,2507.24496508,N,12127.63742019,E,2,07,1.1,9.494,M,14.906,M,6.2,0630*46
41782.40651988,2779231.365,296450.129,9.494,"",0,$GPGGA,014523.00,2507.24496515,N,12127.63742012,E,2,07,1.1,9.494,M,14.906,M,6.0,0630*42
41782.40653146,2779231.365,296450.129,9.494,"",0,$GPGGA,014524.00,2507.24496522,N,12127.63742004,E,2,07,1.1,9.494,M,14.906,M,5.8,0630*4D
41782.40654303,2779231.366,296450.129,9.495,"",0,$GPGGA,014525.00,2507.24496529,N,12127.63741994,E,2,07,1.1,9.495,M,14.906,M,6.2,0630*4C
41782.40655461,2779231.366,296450.129,9.495,"",0,$GPGGA,014526.00,2507.24496536,N,12127.63741985,E,2,07,1.1,9.495,M,14.906,M,7.2,0630*40
41782.40656618,2779231.366,296450.129,9.495,"",0,$GPGGA,014527.00,2507.24496544,N,12127.63741976,E,2,07,1.1,9.495,M,14.906,M,8.2,0630*47
41782.40657775,2779231.366,296450.129,9.496,"",0,$GPGGA,014528.00,2507.24496552,N,12127.63741967,E,2,07,1.1,9.496,M,14.906,M,8.0,0630*4E
41782.40658933,2779231.366,296450.128,9.496,"",0,$GPGGA,014529.00,2507.24496561,N,12127.63741957,E,2,07,1.1,9.496,M,14.906,M,6.0,0630*42
41782.40660090,2779231.366,296450.128,9.496,"",0,$GPGGA,014530.00,2507.24496572,N,12127.63741949,E,2,07,1.1,9.496,M,14.906,M,5.8,0630*4C
41782.40661248,2779231.367,296450.128,9.497,"",0,$GPGGA,014531.00,2507.24496584,N,12127.63741942,E,2,07,1.1,9.497,M,14.906,M,6.8,0630*4D
41782.40662405,2779231.367,296450.128,9.497,"",0,$GPGGA,014532.00,2507.24496595,N,12127.63741934,E,2,07,1.1,9.497,M,14.906,M,7.8,0630*4E
41782.40663562,2779231.367,296450.128,9.497,"",0,$GPGGA,014533.00,2507.24496605,N,12127.63741927,E,2,07,1.1,9.497,M,14.906,M,8.8,0630*48
41782.40664720,2779231.367,296450.128,9.498,"",0,$GPGGA,014534.00,2507.24496617,N,12127.63741921,E,2,07,1.1,9.498,M,14.906,M,9.2,0630*4E
41782.40665877,2779231.367,296450.128,9.498,"",0,$GPGGA,014535.00,2507.24496631,N,12127.63741914,E,2,07,1.1,9.498,M,14.906,M,4.8,0630*4A
41782.40667035,2779231.368,296450.128,9.498,"",0,$GPGGA,014536.00,2507.24496648,N,12127.63741907,E,2,07,1.1,9.498,M,14.906,M,5.2,0630*4E
41782.40668192,2779231.368,296450.127,9.498,"",0,$GPGGA,014537.00,2507.24496669,N,12127.63741899,E,2,07,1.1,9.498,M,14.906,M,5.0,0630*48
41782.40669350,2779231.369,296450.127,9.499,"",0,$GPGGA,014538.00,2507.24496695,N,12127.63741889,E,2,07,1.1,9.499,M,14.906,M,4.8,0630*4D
41782.40670507,2779231.369,296450.127,9.499,"",0,$GPGGA,014539.00,2507.24496725,N,12127.63741877,E,2,07,1.1,9.499,M,14.906,M,5.2,0630*4C
41782.40671664,2779231.370,296450.127,9.499,"",0,$GPGGA,014540.00,2507.24496761,N,12127.63741865,E,2,07,1.1,9.499,M,14.906,M,6.2,0630*42
41782.40672822,2779231.371,296450.127,9.500,"",0,$GPGGA,014541.00,2507.24496801,N,12127.63741850,E,2,07,1.1,9.500,M,14.906,M,7.2,0630*4C
41782.40673979,2779231.371,296450.126,9.500,"",0,$GPGGA,014542.00,2507.24496848,N,12127.63741831,E,2,07,1.1,9.500,M,14.906,M,7.0,0630*47
41782.40675137,2779231.372,296450.126,9.500,"",0,$GPGGA,014543.00,2507.24496903,N,12127.63741810,E,2,07,1.1,9.500,M,14.906,M,8.0,0630*44
41782.40676294,2779231.374,296450.125,9.501,"",0,$GPGGA,014544.00,2507.24496964,N,12127.63741788,E,2,07,1.1,9.501,M,14.906,M,7.8,0630*4A
41782.40677451,2779232.169,296449.983,9.753,"",0,$GPGGA,014545.00,2507.24540092,N,12127.63733499,E,2,07,1.1,9.753,M,14.906,M,5.8,0630*40
41782.40678609,2779232.630,296449.896,9.801,"",0,$GPGGA,014546.00,2507.24565086,N,12127.63728414,E,2,07,1.1,9.801,M,14.906,M,6.2,0630*4F
41782.40679766,2779232.923,296449.953,9.810,"",0,$GPGGA,014547.00,2507.24580940,N,12127.63731826,E,2,07,1.1,9.810,M,14.906,M,6.0,0630*41
41782.40680924,2779233.132,296449.969,9.833,"",0,$GPGGA,014548.00,2507.24592237,N,12127.63732814,E,2,07,1.1,9.833,M,14.906,M,7.0,0630*44
41782.40682081,2779233.359,296450.084,9.849,"",0,$GPGGA,014549.00,2507.24604526,N,12127.63739727,E,2,07,1.1,9.849,M,14.906,M,8.0,0630*48
41782.40683238,2779233.560,296450.164,9.853,"",0,$GPGGA,014550.00,2507.24615392,N,12127.63744513,E,2,07,1.1,9.853,M,14.906,M,7.8,0630*4A
41782.40684396,2779233.810,296450.280,9.873,"",0,$GPGGA,014551.00,2507.24628929,N,12127.63751501,E,2,07,1.1,9.873,M,14.906,M,5.8,0630*48
41782.40685553,2779234.113,296450.352,9.863,"",0,$GPGGA,014552.00,2507.24645305,N,12127.63755834,E,2,07,1.1,9.863,M,14.906,M,6.2,0630*43
41782.40686711,2779234.521,296450.370,9.861,"",0,$GPGGA,014553.00,2507.24667420,N,12127.63757004,E,2,07,1.1,9.861,M,14.906,M,4.8,0630*41
41782.40687868,2779235.093,296450.424,9.865,"",0,$GPGGA,014554.00,2507.24698398,N,12127.63760276,E,2,07,1.1,9.865,M,14.906,M,5.2,0630*4E
41782.40689025,2779235.735,296450.406,9.845,"",0,$GPGGA,014555.00,2507.24733149,N,12127.63759386,E,2,07,1.1,9.845,M,14.906,M,5.0,0630*45
41782.40690183,2779236.469,296450.365,9.865,"",0,$GPGGA,014556.00,2507.24772944,N,12127.63757072,E,2,07,1.1,9.865,M,14.906,M,4.8,0630*4B
41782.40691340,2779237.271,296450.320,9.854,"",0,$GPGGA,014557.00,2507.24816381,N,12127.63754583,E,2,07,1.1,9.854,M,14.906,M,5.2,0630*45
41782.40692498,2779238.149,296450.248,9.849,"",0,$GPGGA,014558.00,2507.24863969,N,12127.63750456,E,2,07,1.1,9.849,M,14.906,M,6.2,0630*46
41782.40693655,2779239.101,296450.184,9.828,"",0,$GPGGA,014559.00,2507.24915538,N,12127.63746823,E,2,07,1.1,9.828,M,14.906,M,6.0,0630*43
41782.40694812,2779240.128,296450.159,9.828,"",0,$GPGGA,014600.00,2507.24971175,N,12127.63745578,E,2,07,1.1,9.828,M,14.906,M,5.8,0630*48
41782.40695970,2779241.229,296450.104,9.818,"",0,$GPGGA,014601.00,2507.25030791,N,12127.63742507,E,2,07,1.1,9.818,M,14.906,M,6.8,0630*47
41782.40697127,2779242.414,296450.049,9.811,"",0,$GPGGA,014602.00,2507.25094995,N,12127.63739450,E,2,07,1.1,9.811,M,14.906,M,7.8,0630*47
41782.40698285,2779243.679,296450.009,9.819,"",0,$GPGGA,014603.00,2507.25163550,N,12127.63737356,E,2,07,1.1,9.819,M,14.906,M,8.2,0630*48
41782.40699442,2779245.000,296449.977,9.816,"",0,$GPGGA,014604.00,2507.25235101,N,12127.63735730,E,2,07,1.1,9.816,M,14.906,M,6.2,0630*48
41782.40700600,2779246.319,296449.958,9.825,"",0,$GPGGA,014605.00,2507.25306543,N,12127.63734834,E,2,07,1.1,9.825,M,14.906,M,6.0,0630*42
41782.40701757,2779247.625,296449.928,9.822,"",0,$GPGGA,014606.00,2507.25377295,N,12127.63733322,E,2,07,1.1,9.822,M,14.906,M,5.8,0630*4C
41782.40702914,2779248.931,296449.936,9.843,"",0,$GPGGA,014607.00,2507.25448068,N,12127.63734097,E,2,07,1.1,9.843,M,14.906,M,5.0,0630*43
41782.40704072,2779250.201,296449.950,9.855,"",0,$GPGGA,014608.00,2507.25516819,N,12127.63735161,E,2,07,1.1,9.855,M,14.906,M,4.8,0630*4F
41782.40705229,2779251.371,296449.938,9.847,"",0,$GPGGA,014609.00,2507.25580189,N,12127.63734667,E,2,07,1.1,9.847,M,14.906,M,5.2,0630*49
41782.40706387,2779252.310,296449.933,9.833,"",0,$GPGGA,014610.00,2507.25631063,N,12127.63734589,E,2,07,1.1,9.833,M,14.906,M,6.2,0630*4E
41782.40707544,2779252.940,296449.964,9.828,"",0,$GPGGA,014611.00,2507.25665216,N,12127.63736556,E,2,07,1.1,9.828,M,14.906,M,7.2,0630*45
41782.40708701,2779253.257,296449.976,9.819,"",0,$GPGGA,014612.00,2507.25682385,N,12127.63737331,E,2,07,1.1,9.819,M,14.906,M,8.2,0630*4F
41782.40709859,2779253.321,296449.861,9.814,"",0,$GPGGA,014613.00,2507.25685849,N,12127.63730490,E,2,07,1.1,9.814,M,14.906,M,8.0,0630*46
41782.40711016,2779253.207,296449.606,9.801,"",0,$GPGGA,014614.00,2507.25679732,N,12127.63715315,E,2,07,1.1,9.801,M,14.906,M,9.0,0630*49
41782.40712174,2779253.108,296449.215,9.796,"",0,$GPGGA,014615.00,2507.25674412,N,12127.63692036,E,2,07,1.1,9.796,M,14.906,M,10.0,0630*71
41782.40713331,2779253.095,296448.674,9.779,"",0,$GPGGA,014616.00,2507.25673848,N,12127.63659850,E,2,07,1.1,9.779,M,14.906,M,8.0,0630*41
41782.40714488,2779253.018,296448.063,9.762,"",0,$GPGGA,014617.00,2507.25669746,N,12127.63623475,E,2,07,1.1,9.762,M,14.906,M,6.0,0630*48
41782.40715646,2779252.992,296447.294,9.777,"",0,$GPGGA,014618.00,2507.25668523,N,12127.63577738,E,2,07,1.1,9.777,M,14.906,M,5.8,0630*40
41782.40716803,2779253.024,296446.387,9.796,"",0,$GPGGA,014619.00,2507.25670405,N,12127.63523775,E,2,07,1.1,9.796,M,14.906,M,6.8,0630*49
41782.40717961,2779253.096,296445.394,9.796,"",0,$GPGGA,014620.00,2507.25674479,N,12127.63464661,E,2,07,1.1,9.796,M,14.906,M,7.8,0630*4B
41782.40719118,2779253.218,296444.307,9.794,"",0,$GPGGA,014621.00,2507.25681321,N,12127.63400017,E,2,07,1.1,9.794,M,14.906,M,8.2,0630*48
41782.40720275,2779253.316,296443.152,9.801,"",0,$GPGGA,014622.00,2507.25686821,N,12127.63331315,E,2,07,1.1,9.801,M,14.906,M,9.2,0630*41
41782.40721433,2779253.437,296441.884,9.805,"",0,$GPGGA,014623.00,2507.25693603,N,12127.63255935,E,2,07,1.1,9.805,M,14.906,M,7.2,0630*4B
41782.40722590,2779253.542,296440.530,9.786,"",0,$GPGGA,014624.00,2507.25699526,N,12127.63175354,E,2,07,1.1,9.786,M,14.906,M,7.0,0630*48
41782.40723748,2779253.664,296439.178,9.787,"",0,$GPGGA,014625.00,2507.25706417,N,12127.63094947,E,2,07,1.1,9.787,M,14.906,M,8.0,0630*45
41782.40724905,2779253.816,296437.849,9.784,"",0,$GPGGA,014626.00,2507.25714912,N,12127.63015932,E,2,07,1.1,9.784,M,14.905,M,9.0,0630*47
41782.40726062,2779253.977,296436.526,9.786,"",0,$GPGGA,014627.00,2507.25723863,N,12127.62937230,E,2,07,1.1,9.786,M,14.905,M,8.8,0630*4F
41782.40727220,2779254.150,296435.219,9.778,"",0,$GPGGA,014628.00,2507.25733487,N,12127.62859487,E,2,07,1.1,9.778,M,14.905,M,5.0,0630*40
41782.40728377,2779254.351,296433.908,9.765,"",0,$GPGGA,014629.00,2507.25744608,N,12127.62781529,E,2,07,1.1,9.765,M,14.905,M,4.8,0630*4E
41782.40729535,2779254.567,296432.601,9.774,"",0,$GPGGA,014630.00,2507.25756510,N,12127.62703857,E,2,07,1.1,9.774,M,14.905,M,5.2,0630*4A
41782.40730692,2779254.785,296431.294,9.779,"",0,$GPGGA,014631.00,2507.25768577,N,12127.62626112,E,2,07,1.1,9.779,M,14.905,M,5.0,0630*46
41782.40731850,2779255.018,296429.995,9.789,"",0,$GPGGA,014632.00,2507.25781437,N,12127.62548874,E,2,07,1.1,9.789,M,14.905,M,6.0,0630*49
41782.40733007,2779255.274,296428.685,9.793,"",0,$GPGGA,014633.00,2507.25795552,N,12127.62470978,E,2,07,1.1,9.793,M,14.905,M,5.8,0630*48
41782.40734164,2779255.545,296427.381,9.798,"",0,$GPGGA,014634.00,2507.25810468,N,12127.62393480,E,2,07,1.1,9.798,M,14.905,M,6.2,0630*47
41782.40735322,2779255.810,296426.092,9.792,"",0,$GPGGA,014635.00,2507.25825056,N,12127.62316787,E,2,07,1.1,9.792,M,14.905,M,6.0,0630*48
41782.40736479,2779256.115,296424.782,9.791,"",0,$GPGGA,014636.00,2507.25841825,N,12127.62238910,E,2,07,1.1,9.791,M,14.905,M,5.8,0630*40
41782.40737637,2779256.453,296423.475,9.780,"",0,$GPGGA,014637.00,2507.25860400,N,12127.62161224,E,2,07,1.1,9.780,M,14.905,M,6.2,0630*43
41782.40738794,2779256.794,296422.174,9.795,"",0,$GPGGA,014638.00,2507.25879093,N,12127.62083881,E,2,07,1.1,9.795,M,14.905,M,6.0,0630*44
41782.40739951,2779257.136,296420.877,9.810,"",0,$GPGGA,014639.00,2507.25897859,N,12127.62006816,E,2,07,1.1,9.810,M,14.905,M,5.8,0630*41
41782.40741109,2779257.483,296419.575,9.788,"",0,$GPGGA,014640.00,2507.25916890,N,12127.61929400,E,2,07,1.1,9.788,M,14.905,M,6.2,0630*49
41782.40742266,2779257.828,296418.286,9.773,"",0,$GPGGA,014641.00,2507.25935808,N,12127.61852775,E,2,07,1.1,9.773,M,14.905,M,6.0,0630*42
41782.40743424,2779258.169,296417.008,9.781,"",0,$GPGGA,014642.00,2507.25954541,N,12127.61776792,E,2,07,1.1,9.781,M,14.905,M,5.8,0630*40
41782.40744581,2779258.513,296415.726,9.764,"",0,$GPGGA,014643.00,2507.25973380,N,12127.61700608,E,2,07,1.1,9.764,M,14.905,M,6.2,0630*4E
41782.40745738,2779258.831,296414.454,9.748,"",0,$GPGGA,014644.00,2507.25990858,N,12127.61624978,E,2,07,1.1,9.748,M,14.905,M,6.0,0630*49
41782.40746896,2779259.163,296413.199,9.748,"",0,$GPGGA,014645.00,2507.26009054,N,12127.61550403,E,2,07,1.1,9.748,M,14.905,M,7.0,0630*46
41782.40748053,2779259.431,296411.968,9.765,"",0,$GPGGA,014646.00,2507.26023826,N,12127.61477180,E,2,07,1.1,9.765,M,14.905,M,6.2,0630*46
41782.40749211,2779259.721,296410.713,9.727,"",0,$GPGGA,014647.00,2507.26039749,N,12127.61402596,E,2,07,1.1,9.727,M,14.905,M,6.0,0630*4F
41782.40750368,2779259.967,296409.457,9.694,"",0,$GPGGA,014648.00,2507.26053301,N,12127.61327912,E,2,07,1.1,9.694,M,14.905,M,5.8,0630*46
41782.40751525,2779260.161,296408.211,9.718,"",0,$GPGGA,014649.00,2507.26064066,N,12127.61253787,E,2,07,1.1,9.718,M,14.905,M,6.2,0630*4D
41782.40752683,2779260.311,296406.963,9.736,"",0,$GPGGA,014650.00,2507.26072399,N,12127.61179592,E,2,07,1.1,9.736,M,14.905,M,7.2,0630*41
41782.40753840,2779260.409,296405.725,9.743,"",0,$GPGGA,014651.00,2507.26077935,N,12127.61105938,E,2,07,1.1,9.743,M,14.905,M,8.2,0630*43
41782.40754998,2779260.444,296404.510,9.770,"",0,$GPGGA,014652.00,2507.26080086,N,12127.61033669,E,2,07,1.1,9.770,M,14.905,M,8.0,0630*44
41782.40756155,2779260.405,296403.307,9.758,"",0,$GPGGA,014653.00,2507.26078190,N,12127.60962060,E,2,07,1.1,9.758,M,14.905,M,7.8,0630*4A
41782.40757312,2779260.294,296402.144,9.774,"",0,$GPGGA,014654.00,2507.26072404,N,12127.60892866,E,2,07,1.1,9.774,M,14.905,M,5.8,0630*43
41782.40758470,2779260.120,296401.009,9.772,"",0,$GPGGA,014655.00,2507.26063178,N,12127.60825312,E,2,07,1.1,9.772,M,14.905,M,5.0,0630*46
41782.40759627,2779259.905,296399.913,9.769,"",0,$GPGGA,014656.00,2507.26051741,N,12127.60760039,E,2,07,1.1,9.769,M,14.905,M,4.8,0630*4F
41782.40760785,2779259.621,296398.847,9.766,"",0,$GPGGA,014657.00,2507.26036540,N,12127.60696585,E,2,07,1.1,9.766,M,14.905,M,5.2,0630*42
41782.40761942,2779259.291,296397.775,9.777,"",0,$GPGGA,014658.00,2507.26018868,N,12127.60632722,E,2,07,1.1,9.777,M,14.905,M,6.2,0630*44
41782.40763100,2779258.894,296396.722,9.784,"",0,$GPGGA,014659.00,2507.25997523,N,12127.60569964,E,2,07,1.1,9.784,M,14.905,M,6.0,0630*45
41782.40764257,2779258.486,296395.656,9.788,"",0,$GPGGA,014700.00,2507.25975671,N,12127.60506472,E,2,07,1.1,9.788,M,14.905,M,5.8,0630*44
41782.40765414,2779258.063,296394.593,9.796,"",0,$GPGGA,014701.00,2507.25952909,N,12127.60443143,E,2,07,1.1,9.796,M,14.905,M,6.2,0630*41
41782.40766572,2779257.616,296393.529,9.823,"",0,$GPGGA,014702.00,2507.25928918,N,12127.60379735,E,2,07,1.1,9.823,M,14.905,M,6.0,0630*45
41782.40767729,2779257.147,296392.432,9.829,"",0,$GPGGA,014703.00,2507.25903729,N,12127.60314384,E,2,07,1.1,9.829,M,14.905,M,5.8,0630*45
41782.40768887,2779256.662,296391.330,9.822,"",0,$GPGGA,014704.00,2507.25877622,N,12127.60248747,E,2,07,1.1,9.822,M,14.905,M,6.2,0630*4B
41782.40770044,2779256.193,296390.208,9.799,"",0,$GPGGA,014705.00,2507.25852425,N,12127.60181869,E,2,07,1.1,9.799,M,14.905,M,6.0,0630*40
41782.40771201,2779255.718,296389.067,9.807,"",0,$GPGGA,014706.00,2507.25826949,N,12127.60113870,E,2,07,1.1,9.807,M,14.905,M,5.8,0630*47
41782.40772359,2779255.254,296387.872,9.827,"",0,$GPGGA,014707.00,2507.25802002,N,12127.60042679,E,2,07,1.1,9.827,M,14.905,M,6.2,0630*4F
41782.40773516,2779254.773,296386.662,9.847,"",0,$GPGGA,014708.00,2507.25776198,N,12127.59970601,E,2,07,1.1,9.847,M,14.905,M,6.0,0630*47
41782.40774674,2779254.334,296385.387,9.845,"",0,$GPGGA,014709.00,2507.25752650,N,12127.59894631,E,2,07,1.1,9.845,M,14.905,M,5.8,0630*42
41782.40775831,2779253.908,296384.071,9.852,"",0,$GPGGA,014710.00,2507.25729815,N,12127.59816296,E,2,07,1.1,9.852,M,14.905,M,6.8,0630*4F
41782.40776988,2779253.484,296382.730,9.885,"",0,$GPGGA,014711.00,2507.25707099,N,12127.59736423,E,2,07,1.1,9.885,M,14.905,M,7.2,0630*4A
41782.40778146,2779253.033,296381.393,9.900,"",0,$GPGGA,014712.00,2507.25682928,N,12127.59656785,E,2,07,1.1,9.900,M,14.905,M,7.0,0630*40
41782.40779303,2779252.595,296380.037,9.897,"",0,$GPGGA,014713.00,2507.25659450,N,12127.59575978,E,2,07,1.1,9.897,M,14.905,M,6.8,0630*4D
41782.40780461,2779252.159,296378.689,9.883,"",0,$GPGGA,014714.00,2507.25636032,N,12127.59495714,E,2,07,1.1,9.883,M,14.905,M,7.2,0630*46
41782.40781618,2779251.713,296377.326,9.899,"",0,$GPGGA,014715.00,2507.25612151,N,12127.59414540,E,2,07,1.1,9.899,M,14.905,M,8.2,0630*4B
41782.40782775,2779251.247,296375.964,9.916,"",0,$GPGGA,014716.00,2507.25587152,N,12127.59333395,E,2,07,1.1,9.916,M,14.905,M,9.2,0630*4F
41782.40783933,2779250.740,296374.627,9.922,"",0,$GPGGA,014717.00,2507.25559966,N,12127.59253752,E,2,07,1.1,9.922,M,14.905,M,9.0,0630*4F
41782.40785090,2779250.244,296373.290,9.925,"",0,$GPGGA,014718.00,2507.25533306,N,12127.59174061,E,2,07,1.1,9.925,M,14.905,M,7.0,0630*48
41782.40786248,2779249.732,296371.967,9.953,"",0,$GPGGA,014719.00,2507.25505816,N,12127.59095281,E,2,07,1.1,9.953,M,14.905,M,8.0,0630*4A
41782.40787405,2779249.192,296370.665,9.967,"",0,$GPGGA,014720.00,2507.25476807,N,12127.59017709,E,2,07,1.1,9.967,M,14.905,M,9.0,0630*4C
41782.40788562,2779248.647,296369.363,9.967,"",0,$GPGGA,014721.00,2507.25447561,N,12127.58940124,E,2,07,1.1,9.967,M,14.905,M,10.0,0630*79
41782.40789720,2779248.069,296368.097,9.980,"",0,$GPGGA,014722.00,2507.25416461,N,12127.58864668,E,2,07,1.1,9.980,M,14.905,M,11.0,0630*7F
41782.40790877,2779247.494,296366.815,10.009,"",0,$GPGGA,014723.00,2507.25385570,N,12127.58788306,E,2,07,1.1,10.009,M,14.905,M,10.8,0630*4B
41782.40792035,2779246.902,296365.562,9.999,"",0,$GPGGA,014724.00,2507.25353730,N,12127.58713620,E,2,07,1.1,9.999,M,14.905,M,11.2,0630*71
41782.40793192,2779246.308,296364.335,9.967,"",0,$GPGGA,014725.00,2507.25321785,N,12127.58640477,E,2,07,1.1,9.967,M,14.905,M,12.2,0630*7E
41782.40794350,2779245.690,296363.129,9.962,"",0,$GPGGA,014726.00,2507.25288504,N,12127.58568600,E,2,07,1.1,9.962,M,14.905,M,6.0,0630*4D
41782.40795507,2779245.024,296361.948,9.963,"",0,$GPGGA,014727.00,2507.25252642,N,12127.58498225,E,2,07,1.1,9.963,M,14.905,M,5.8,0630*4D
41782.40796664,2779244.350,296360.748,9.948,"",0,$GPGGA,014728.00,2507.25216374,N,12127.58426692,E,2,07,1.1,9.948,M,14.904,M,6.2,0630*4E
41782.40797822,2779243.677,296359.568,9.931,"",0,$GPGGA,014729.00,2507.25180123,N,12127.58356315,E,2,07,1.1,9.931,M,14.904,M,6.0,0630*45
41782.40798979,2779242.959,296358.403,9.933,"",0,$GPGGA,014730.00,2507.25141434,N,12127.58286849,E,2,07,1.1,9.933,M,14.904,M,5.8,0630*44
41782.40800137,2779242.181,296357.204,9.937,"",0,$GPGGA,014731.00,2507.25099547,N,12127.58215355,E,2,07,1.1,9.937,M,14.904,M,6.2,0630*45
41782.40801294,2779241.336,296356.020,9.939,"",0,$GPGGA,014732.00,2507.25053970,N,12127.58144747,E,2,07,1.1,9.939,M,14.904,M,6.0,0630*44
41782.40802451,2779240.432,296354.858,9.940,"",0,$GPGGA,014733.00,2507.25005205,N,12127.58075437,E,2,07,1.1,9.940,M,14.904,M,7.0,0630*47
41782.40803609,2779239.464,296353.678,9.925,"",0,$GPGGA,014734.00,2507.24953026,N,12127.58005027,E,2,07,1.1,9.925,M,14.904,M,8.0,0630*46
41782.40804766,2779238.388,296352.484,9.922,"",0,$GPGGA,014735.00,2507.24894966,N,12127.57933789,E,2,07,1.1,9.922,M,14.904,M,7.8,0630*40
41782.40805924,2779237.196,296351.320,9.923,"",0,$GPGGA,014736.00,2507.24830617,N,12127.57864281,E,2,07,1.1,9.923,M,14.904,M,5.8,0630*49
41782.40807081,2779235.898,296350.199,9.919,"",0,$GPGGA,014737.00,2507.24760485,N,12127.57797320,E,2,07,1.1,9.919,M,14.904,M,6.2,0630*42
41782.40808238,2779234.505,296349.119,9.923,"",0,$GPGGA,014738.00,2507.24685219,N,12127.57732790,E,2,07,1.1,9.923,M,14.904,M,4.8,0630*45
41782.40809396,2779233.042,296348.130,9.919,"",0,$GPGGA,014739.00,2507.24606170,N,12127.57673645,E,2,07,1.1,9.919,M,14.904,M,5.2,0630*4C
41782.40810553,2779231.535,296347.210,9.895,"",0,$GPGGA,014740.00,2507.24524739,N,12127.57618598,E,2,07,1.1,9.895,M,14.905,M,6.2,0630*43
41782.40811711,2779229.984,296346.389,9.889,"",0,$GPGGA,014741.00,2507.24440853,N,12127.57569457,E,2,07,1.1,9.889,M,14.905,M,6.0,0630*4A
41782.40812868,2779228.360,296345.690,9.893,"",0,$GPGGA,014742.00,2507.24353005,N,12127.57527502,E,2,07,1.1,9.893,M,14.905,M,5.8,0630*4C
41782.40814025,2779226.673,296345.081,9.894,"",0,$GPGGA,014743.00,2507.24261767,N,12127.57490935,E,2,07,1.1,9.894,M,14.905,M,6.2,0630*45
41782.40815183,2779225.040,296344.497,9.880,"",0,$GPGGA,014744.00,2507.24173369,N,12127.57455877,E,2,07,1.1,9.880,M,14.905,M,6.0,0630*41
41782.40816340,2779223.576,296343.939,9.885,"",0,$GPGGA,014745.00,2507.24094193,N,12127.57422359,E,2,07,1.1,9.885,M,14.905,M,5.8,0630*46
41782.40817498,2779222.244,296343.447,9.890,"",0,$GPGGA,014746.00,2507.24022109,N,12127.57392824,E,2,07,1.1,9.890,M,14.905,M,6.8,0630*41
41782.40818655,2779221.034,296343.027,9.890,"",0,$GPGGA,014747.00,2507.23956689,N,12127.57367618,E,2,07,1.1,9.890,M,14.905,M,7.8,0630*48
41782.40819812,2779219.922,296342.683,9.884,"",0,$GPGGA,014748.00,2507.23896518,N,12127.57346896,E,2,07,1.1,9.884,M,14.905,M,8.2,0630*4A
41782.40820970,2779218.905,296342.402,9.900,"",0,$GPGGA,014749.00,2507.23841481,N,12127.57329988,E,2,07,1.1,9.900,M,14.905,M,9.2,0630*4B
41782.40822127,2779217.986,296342.184,9.887,"",0,$GPGGA,014750.00,2507.23791732,N,12127.57316801,E,2,07,1.1,9.887,M,14.905,M,7.2,0630*46
41782.40823285,2779217.162,296342.021,9.874,"",0,$GPGGA,014751.00,2507.23747134,N,12127.57306969,E,2,07,1.1,9.874,M,14.905,M,5.8,0630*46
41782.40824442,2779216.425,296341.862,9.887,"",0,$GPGGA,014752.00,2507.23707226,N,12127.57297370,E,2,07,1.1,9.887,M,14.905,M,6.2,0630*4F
41782.40825600,2779215.757,296341.769,9.905,"",0,$GPGGA,014753.00,2507.23671056,N,12127.57291700,E,2,07,1.1,9.905,M,14.905,M,6.0,0630*47
41782.40826757,2779215.134,296341.726,9.919,"",0,$GPGGA,014754.00,2507.23637321,N,12127.57288981,E,2,07,1.1,9.919,M,14.905,M,5.8,0630*48
41782.40827914,2779214.580,296341.721,9.914,"",0,$GPGGA,014755.00,2507.23607296,N,12127.57288605,E,2,07,1.1,9.914,M,14.905,M,6.2,0630*40
41782.40829072,2779214.074,296341.676,9.899,"",0,$GPGGA,014756.00,2507.23579924,N,12127.57285787,E,2,07,1.1,9.899,M,14.905,M,6.0,0630*4B
41782.40830229,2779213.638,296341.657,9.883,"",0,$GPGGA,014757.00,2507.23556318,N,12127.57284566,E,2,07,1.1,9.883,M,14.905,M,5.8,0630*4E
41782.40831387,2779213.250,296341.616,9.871,"",0,$GPGGA,014758.00,2507.23535316,N,12127.57282055,E,2,07,1.1,9.871,M,14.905,M,6.2,0630*4D
41782.40832544,2779212.910,296341.564,9.880,"",0,$GPGGA,014759.00,2507.23516864,N,12127.57278902,E,2,07,1.1,9.880,M,14.905,M,6.0,0630*41
41782.40833701,2779212.611,296341.540,9.884,"",0,$GPGGA,014800.00,2507.23500701,N,12127.57277381,E,2,07,1.1,9.884,M,14.905,M,5.2,0630*42
41782.40834859,2779212.344,296341.532,9.884,"",0,$GPGGA,014801.00,2507.23486226,N,12127.57276904,E,2,07,1.1,9.884,M,14.905,M,6.2,0630*49
41782.40836016,2779212.113,296341.508,9.891,"",0,$GPGGA,014802.00,2507.23473717,N,12127.57275432,E,2,07,1.1,9.891,M,14.905,M,6.0,0630*4A
41782.40837174,2779211.911,296341.459,9.910,"",0,$GPGGA,014803.00,2507.23462769,N,12127.57272444,E,2,07,1.1,9.910,M,14.905,M,5.8,0630*47
41782.40838331,2779211.755,296341.420,9.917,"",0,$GPGGA,014804.00,2507.23454349,N,12127.57270124,E,2,07,1.1,9.917,M,14.905,M,6.2,0630*4C
41782.40839488,2779211.629,296341.387,9.919,"",0,$GPGGA,014805.00,2507.23447509,N,12127.57268106,E,2,07,1.1,9.919,M,14.905,M,6.0,0630*48
41782.40840646,2779211.541,296341.357,9.921,"",0,$GPGGA,014806.00,2507.23442760,N,12127.57266294,E,2,07,1.1,9.921,M,14.905,M,5.8,0630*45
41782.40841803,2779211.455,296341.321,9.927,"",0,$GPGGA,014807.00,2507.23438122,N,12127.57264129,E,2,07,1.1,9.927,M,14.905,M,6.2,0630*41
41782.40842961,2779211.361,296341.279,9.931,"",0,$GPGGA,014808.00,2507.23433010,N,12127.57261598,E,2,07,1.1,9.931,M,14.905,M,6.0,0630*4B
41782.40844118,2779211.263,296341.234,9.928,"",0,$GPGGA,014809.00,2507.23427727,N,12127.57258954,E,2,07,1.1,9.928,M,14.905,M,5.8,0630*49
41782.40845275,2779211.166,296341.186,9.932,"",0,$GPGGA,014810.00,2507.23422505,N,12127.57256083,E,2,07,1.1,9.932,M,14.905,M,6.8,0630*43
41782.40846433,2779211.058,296341.128,9.935,"",0,$GPGGA,014811.00,2507.23416660,N,12127.57252570,E,2,07,1.1,9.935,M,14.905,M,7.8,0630*4E
41782.40847590,2779210.953,296341.065,9.939,"",0,$GPGGA,014812.00,2507.23410941,N,12127.57248795,E,2,07,1.1,9.939,M,14.905,M,8.2,0630*4C
41782.40848748,2779210.836,296340.980,9.946,"",0,$GPGGA,014813.00,2507.23404647,N,12127.57243726,E,2,07,1.1,9.946,M,14.905,M,9.2,0630*4B
41782.40849905,2779210.731,296340.887,9.924,"",0,$GPGGA,014814.00,2507.23398953,N,12127.57238178,E,2,07,1.1,9.924,M,14.905,M,7.2,0630*4F
41782.40851062,2779210.636,296340.798,9.924,"",0,$GPGGA,014815.00,2507.23393839,N,12127.57232864,E,2,07,1.1,9.924,M,14.905,M,7.0,0630*44
41782.40852220,2779210.556,296340.673,9.916,"",0,$GPGGA,014816.00,2507.23389541,N,12127.57225397,E,2,07,1.1,9.916,M,14.905,M,6.8,0630*47
41782.40853377,2779210.498,296340.574,9.908,"",0,$GPGGA,014817.00,2507.23386407,N,12127.57219523,E,2,07,1.1,9.908,M,14.905,M,6.0,0630*4B
41782.40854535,2779210.458,296340.426,9.910,"",0,$GPGGA,014818.00,2507.23384261,N,12127.57210693,E,2,07,1.1,9.910,M,14.905,M,5.8,0630*43
41782.40855692,2779210.440,296340.287,9.917,"",0,$GPGGA,014819.00,2507.23383307,N,12127.57202421,E,2,07,1.1,9.917,M,14.905,M,6.2,0630*42
41782.40856850,2779210.447,296340.164,9.918,"",0,$GPGGA,014820.00,2507.23383716,N,12127.57195129,E,2,07,1.1,9.918,M,14.905,M,6.0,0630*41
41782.40858007,2779210.461,296340.009,9.908,"",0,$GPGGA,014821.00,2507.23384537,N,12127.57185863,E,2,07,1.1,9.908,M,14.905,M,5.8,0630*4A
41782.40859164,2779210.523,296339.889,9.905,"",0,$GPGGA,014822.00,2507.23387874,N,12127.57178743,E,2,07,1.1,9.905,M,14.905,M,6.2,0630*4B
41782.40860322,2779210.594,296339.770,9.917,"",0,$GPGGA,014823.00,2507.23391785,N,12127.57171695,E,2,07,1.1,9.917,M,14.905,M,6.0,0630*4E
41782.40861479,2779210.644,296339.654,9.930,"",0,$GPGGA,014824.00,2507.23394492,N,12127.57164770,E,2,07,1.1,9.930,M,14.905,M,5.8,0630*49
41782.40862637,2779210.702,296339.529,9.919,"",0,$GPGGA,014825.00,2507.23397668,N,12127.57157402,E,2,07,1.1,9.919,M,14.905,M,6.2,0630*48
41782.40863794,2779210.795,296339.407,9.909,"",0,$GPGGA,014826.00,2507.23402740,N,12127.57150135,E,2,07,1.1,9.909,M,14.905,M,6.0,0630*4E
41782.40864951,2779210.905,296339.299,9.925,"",0,$GPGGA,014827.00,2507.23408675,N,12127.57143755,E,2,07,1.1,9.925,M,14.905,M,5.8,0630*45
41782.40866109,2779211.027,296339.187,9.940,"",0,$GPGGA,014828.00,2507.23415315,N,12127.57137073,E,2,07,1.1,9.940,M,14.905,M,6.8,0630*45
41782.40867266,2779211.178,296339.118,9.938,"",0,$GPGGA,014829.00,2507.23423536,N,12127.57133030,E,2,07,1.1,9.938,M,14.905,M,7.2,0630*41
41782.40868424,2779211.369,296339.037,9.933,"",0,$GPGGA,014830.00,2507.23433876,N,12127.57128227,E,2,07,1.1,9.933,M,14.905,M,7.0,0630*46
41782.40869581,2779211.584,296338.986,9.940,"",0,$GPGGA,014831.00,2507.23445521,N,12127.57125257,E,2,07,1.1,9.940,M,14.905,M,8.0,0630*48
41782.40870738,2779211.785,296338.891,9.941,"",0,$GPGGA,014832.00,2507.23456453,N,12127.57119634,E,2,07,1.1,9.941,M,14.905,M,9.0,0630*43
41782.40871896,2779212.009,296338.824,9.929,"",0,$GPGGA,014833.00,2507.23468593,N,12127.57115677,E,2,07,1.1,9.929,M,14.905,M,8.8,0630*4E
41782.40873053,2779212.253,296338.745,9.924,"",0,$GPGGA,014834.00,2507.23481793,N,12127.57111041,E,2,07,1.1,9.924,M,14.905,M,8.0,0630*4E
41782.40874211,2779212.504,296338.637,9.934,"",0,$GPGGA,014835.00,2507.23495447,N,12127.57104641,E,2,07,1.1,9.934,M,14.905,M,6.0,0630*4D
41782.40875368,2779212.781,296338.571,9.947,"",0,$GPGGA,014836.00,2507.23510456,N,12127.57100817,E,2,07,1.1,9.947,M,14.905,M,5.8,0630*44
41782.40876525,2779213.056,296338.486,9.947,"",0,$GPGGA,014837.00,2507.23525361,N,12127.57095768,E,2,07,1.1,9.947,M,14.905,M,6.8,0630*49
41782.40877683,2779213.339,296338.394,9.950,"",0,$GPGGA,014838.00,2507.23540728,N,12127.57090378,E,2,07,1.1,9.950,M,14.905,M,7.8,0630*4B
41782.40878840,2779213.631,296338.245,9.929,"",0,$GPGGA,014839.00,2507.23556569,N,12127.57081578,E,2,07,1.1,9.929,M,14.905,M,8.8,0630*4D
41782.40879998,2779213.966,296338.184,9.929,"",0,$GPGGA,014840.00,2507.23574715,N,12127.57078023,E,2,07,1.1,9.929,M,14.905,M,9.2,0630*4C
41782.40881155,2779214.302,296338.088,9.929,"",0,$GPGGA,014841.00,2507.23592947,N,12127.57072368,E,2,07,1.1,9.929,M,14.905,M,4.8,0630*4D
41782.40882312,2779214.638,296337.967,9.922,"",0,$GPGGA,014842.00,2507.23611131,N,12127.57065256,E,2,07,1.1,9.922,M,14.905,M,5.2,0630*45
41782.40883470,2779214.973,296337.861,9.922,"",0,$GPGGA,014843.00,2507.23629301,N,12127.57058993,E,2,07,1.1,9.922,M,14.905,M,5.0,0630*40
41782.40884627,2779215.319,296337.734,9.911,"",0,$GPGGA,014844.00,2507.23648075,N,12127.57051538,E,2,07,1.1,9.911,M,14.905,M,4.8,0630*4D
41782.40885785,2779215.680,296337.620,9.909,"",0,$GPGGA,014845.00,2507.23667672,N,12127.57044793,E,2,07,1.1,9.909,M,14.905,M,5.2,0630*45
41782.40886942,2779216.039,296337.497,9.910,"",0,$GPGGA,014846.00,2507.23687116,N,12127.57037535,E,2,07,1.1,9.910,M,14.905,M,5.0,0630*4D
41782.40888100,2779216.419,296337.362,9.897,"",0,$GPGGA,014847.00,2507.23707737,N,12127.57029601,E,2,07,1.1,9.897,M,14.905,M,6.0,0630*46
41782.40889257,2779216.791,296337.222,9.892,"",0,$GPGGA,014848.00,2507.23727911,N,12127.57021362,E,2,07,1.1,9.892,M,14.905,M,5.8,0630*47
41782.40890414,2779217.177,296337.046,9.890,"",0,$GPGGA,014849.00,2507.23748842,N,12127.57010971,E,2,07,1.1,9.890,M,14.905,M,6.2,0630*49
41782.40891572,2779217.578,296336.916,9.904,"",0,$GPGGA,014850.00,2507.23770595,N,12127.57003280,E,2,07,1.1,9.904,M,14.905,M,6.0,0630*44
41782.40892729,2779217.962,296336.746,9.926,"",0,$GPGGA,014851.00,2507.23791423,N,12127.56993242,E,2,07,1.1,9.926,M,14.905,M,5.8,0630*42
41782.40893887,2779218.369,296336.620,9.892,"",0,$GPGGA,014852.00,2507.23813470,N,12127.56985840,E,2,07,1.1,9.892,M,14.905,M,6.2,0630*4A
41782.40895044,2779218.773,296336.423,9.891,"",0,$GPGGA,014853.00,2507.23835418,N,12127.56974202,E,2,07,1.1,9.891,M,14.905,M,6.0,0630*42
41782.40896201,2779219.161,296336.278,9.476,"",0,$GPGGA,014854.00,2507.23856445,N,12127.56965659,E,2,08,1.1,9.476,M,14.905,M,5.8,0630*43
41782.40897359,2779219.583,296336.121,9.399,"",0,$GPGGA,014855.00,2507.23879359,N,12127.56956417,E,2,08,1.1,9.399,M,14.905,M,6.2,0630*42
41782.40898516,2779220.015,296335.952,9.478,"",0,$GPGGA,014856.00,2507.23902753,N,12127.56946457,E,2,08,1.1,9.478,M,14.905,M,7.2,0630*4E
41782.40899674,2779220.446,296335.793,9.573,"",0,$GPGGA,014857.00,2507.23926156,N,12127.56937035,E,2,08,1.1,9.573,M,14.905,M,8.2,0630*49
41782.40900831,2779220.879,296335.616,9.648,"",0,$GPGGA,014858.00,2507.23949661,N,12127.56926614,E,2,08,1.1,9.648,M,14.905,M,9.2,0630*43
41782.40901988,2779221.323,296335.444,9.694,"",0,$GPGGA,014859.00,2507.23973713,N,12127.56916467,E,2,08,1.1,9.694,M,14.905,M,6.0,0630*46
41782.40903146,2779221.779,296335.274,9.730,"",0,$GPGGA,014900.00,2507.23998454,N,12127.56906442,E,2,08,1.1,9.730,M,14.905,M,5.8,0630*4C
41782.40904303,2779222.244,296335.108,9.770,"",0,$GPGGA,014901.00,2507.24023657,N,12127.56896694,E,2,08,1.1,9.770,M,14.905,M,6.8,0630*44
41782.40905461,2779222.720,296334.942,9.790,"",0,$GPGGA,014902.00,2507.24049501,N,12127.56886901,E,2,08,1.1,9.790,M,14.905,M,7.8,0630*46
41782.40906618,2779223.187,296334.766,9.790,"",0,$GPGGA,014903.00,2507.24074790,N,12127.56876536,E,2,08,1.1,9.790,M,14.905,M,8.8,0630*4B
41782.40907775,2779223.663,296334.585,9.816,"",0,$GPGGA,014904.00,2507.24100612,N,12127.56865844,E,2,08,1.1,9.816,M,14.904,M,9.8,0630*4E
41782.40908933,2779224.121,296334.411,9.838,"",0,$GPGGA,014905.00,2507.24125461,N,12127.56855588,E,2,08,1.1,9.838,M,14.904,M,10.8,0630*74
41782.40910090,2779224.607,296334.232,9.824,"",0,$GPGGA,014906.00,2507.24151813,N,12127.56845058,E,2,08,1.1,9.824,M,14.904,M,11.8,0630*78
41782.40911248,2779225.095,296334.048,9.827,"",0,$GPGGA,014907.00,2507.24178279,N,12127.56834191,E,2,08,1.1,9.827,M,14.904,M,6.2,0630*49
41782.40912405,2779225.582,296333.852,9.834,"",0,$GPGGA,014908.00,2507.24204741,N,12127.56822642,E,2,08,1.1,9.834,M,14.904,M,6.0,0630*4E
41782.40913562,2779226.079,296333.672,9.825,"",0,$GPGGA,014909.00,2507.24231669,N,12127.56812017,E,2,08,1.1,9.825,M,14.904,M,5.8,0630*4C
41782.40914720,2779226.583,296333.486,9.818,"",0,$GPGGA,014910.00,2507.24258998,N,12127.56801050,E,2,08,1.1,9.818,M,14.904,M,6.8,0630*46
41782.40915877,2779227.086,296333.299,9.817,"",0,$GPGGA,014911.00,2507.24286267,N,12127.56790009,E,2,08,1.1,9.817,M,14.904,M,6.0,0630*43
41782.40917035,2779227.601,296333.108,9.811,"",0,$GPGGA,014912.00,2507.24314201,N,12127.56778753,E,2,08,1.1,9.811,M,14.904,M,5.8,0630*49
41782.40918192,2779228.111,296332.918,9.799,"",0,$GPGGA,014913.00,2507.24341895,N,12127.56767544,E,2,08,1.1,9.799,M,14.904,M,6.2,0630*43
41782.40919350,2779228.635,296332.712,9.788,"",0,$GPGGA,014914.00,2507.24370318,N,12127.56755407,E,2,08,1.1,9.788,M,14.904,M,6.0,0630*4D
41782.40920507,2779229.160,296332.521,9.782,"",0,$GPGGA,014915.00,2507.24398769,N,12127.56744156,E,2,08,1.1,9.782,M,14.904,M,5.8,0630*48
41782.40921664,2779229.680,296332.310,9.777,"",0,$GPGGA,014916.00,2507.24426968,N,12127.56731733,E,2,08,1.1,9.777,M,14.904,M,6.2,0630*42
41782.40922822,2779230.203,296332.113,9.771,"",0,$GPGGA,014917.00,2507.24455322,N,12127.56720108,E,2,08,1.1,9.771,M,14.904,M,6.0,0630*49
41782.40923979,2779230.735,296331.905,9.764,"",0,$GPGGA,014918.00,2507.24484192,N,12127.56707825,E,2,08,1.1,9.764,M,14.904,M,5.8,0630*4F
41782.40925137,2779231.276,296331.696,9.744,"",0,$GPGGA,014919.00,2507.24513561,N,12127.56695469,E,2,08,1.1,9.744,M,14.904,M,6.2,0630*4C
41782.40926294,2779231.821,296331.490,9.727,"",0,$GPGGA,014920.00,2507.24543126,N,12127.56683344,E,2,08,1.1,9.727,M,14.904,M,6.0,0630*4C
41782.40927451,2779232.366,296331.272,9.717,"",0,$GPGGA,014921.00,2507.24572640,N,12127.56670514,E,2,08,1.1,9.717,M,14.904,M,7.0,0630*45
41782.40928609,2779232.921,296331.044,9.719,"",0,$GPGGA,014922.00,2507.24602770,N,12127.56657025,E,2,08,1.1,9.719,M,14.904,M,6.8,0630*45
41782.40929766,2779233.470,296330.828,9.716,"",0,$GPGGA,014923.00,2507.24632570,N,12127.56644320,E,2,08,1.1,9.716,M,14.904,M,4.8,0630*4C
41782.40930924,2779234.019,296330.591,9.703,"",0,$GPGGA,014924.00,2507.24662336,N,12127.56630330,E,2,08,1.1,9.703,M,14.904,M,5.2,0630*47
41782.40932081,2779234.569,296330.384,9.707,"",0,$GPGGA,014925.00,2507.24692150,N,12127.56618088,E,2,08,1.1,9.707,M,14.904,M,5.0,0630*47
41782.40933238,2779235.126,296330.139,9.709,"",0,$GPGGA,014926.00,2507.24722398,N,12127.56603661,E,2,08,1.1,9.709,M,14.904,M,4.8,0630*44
41782.40934396,2779235.697,296329.913,9.716,"",0,$GPGGA,014927.00,2507.24753332,N,12127.56590324,E,2,08,1.1,9.716,M,14.904,M,5.2,0630*4B
41782.40935553,2779236.283,296329.655,9.724,"",0,$GPGGA,014928.00,2507.24785128,N,12127.56575052,E,2,08,1.1,9.724,M,14.904,M,5.0,0630*4C
41782.40936711,2779236.866,296329.470,9.726,"",0,$GPGGA,014929.00,2507.24816744,N,12127.56564181,E,2,08,1.1,9.726,M,14.904,M,4.8,0630*40
41782.40937868,2779237.448,296329.242,9.719,"",0,$GPGGA,014930.00,2507.24848311,N,12127.56550750,E,2,08,1.1,9.719,M,14.904,M,5.2,0630*4D
41782.40939025,2779238.036,296329.010,9.724,"",0,$GPGGA,014931.00,2507.24880216,N,12127.56537072,E,2,08,1.1,9.724,M,14.904,M,5.0,0630*44
41782.40940183,2779238.625,296328.758,9.736,"",0,$GPGGA,014932.00,2507.24912170,N,12127.56522198,E,2,08,1.1,9.736,M,14.904,M,4.8,0630*45
41782.40941340,2779239.196,296328.564,9.745,"",0,$GPGGA,014933.00,2507.24943123,N,12127.56510763,E,2,08,1.1,9.745,M,14.904,M,5.8,0630*40
41782.40942498,2779239.776,296328.305,9.712,"",0,$GPGGA,014934.00,2507.24974622,N,12127.56495476,E,2,08,1.1,9.712,M,14.904,M,6.2,0630*45
41782.40943655,2779240.341,296328.024,9.706,"",0,$GPGGA,014935.00,2507.25005251,N,12127.56478836,E,2,08,1.1,9.706,M,14.904,M,6.0,0630*46
41782.40944812,2779240.915,296327.796,9.729,"",0,$GPGGA,014936.00,2507.25036409,N,12127.56465435,E,2,08,1.1,9.729,M,14.904,M,7.0,0630*41
41782.40945970,2779241.501,296327.496,9.720,"",0,$GPGGA,014937.00,2507.25068178,N,12127.56447685,E,2,08,1.1,9.720,M,14.904,M,8.0,0630*47
41782.40947127,2779242.080,296327.264,9.694,"",0,$GPGGA,014938.00,2507.25099616,N,12127.56434017,E,2,08,1.1,9.694,M,14.904,M,9.0,0630*4F
41782.40948285,2779242.682,296326.977,9.694,"",0,$GPGGA,014939.00,2507.25132273,N,12127.56417051,E,2,08,1.1,9.694,M,14.904,M,5.8,0630*4E
41782.40949442,2779243.266,296326.711,9.698,"",0,$GPGGA,014940.00,2507.25163937,N,12127.56401300,E,2,08,1.1,9.698,M,14.904,M,6.2,0630*4A
41782.40950600,2779243.862,296326.439,9.693,"",0,$GPGGA,014941.00,2507.25196273,N,12127.56385249,E,2,08,1.1,9.693,M,14.904,M,6.0,0630*44
41782.40951757,2779244.465,296326.140,9.688,"",0,$GPGGA,014942.00,2507.25228978,N,12127.56367615,E,2,08,1.1,9.688,M,14.904,M,7.0,0630*4B
41782.40952914,2779245.072,296325.864,9.701,"",0,$GPGGA,014943.00,2507.25261905,N,12127.56351327,E,2,08,1.1,9.701,M,14.904,M,6.2,0630*4F
41782.40954072,2779245.699,296325.566,9.696,"",0,$GPGGA,014944.00,2507.25295939,N,12127.56333688,E,2,08,1.1,9.696,M,14.904,M,6.0,0630*45
41782.40955229,2779246.306,296325.302,9.706,"",0,$GPGGA,014945.00,2507.25328879,N,12127.56318125,E,2,08,1.1,9.706,M,14.904,M,5.8,0630*4C
41782.40956387,2779246.896,296325.004,9.720,"",0,$GPGGA,014946.00,2507.25360890,N,12127.56300480,E,2,08,1.1,9.720,M,14.904,M,6.2,0630*4A
41782.40957544,2779247.512,296324.689,9.704,"",0,$GPGGA,014947.00,2507.25394325,N,12127.56281893,E,2,08,1.1,9.704,M,14.904,M,6.0,0630*47
41782.40958701,2779248.124,296324.405,9.711,"",0,$GPGGA,014948.00,2507.25427522,N,12127.56265092,E,2,08,1.1,9.711,M,14.904,M,5.8,0630*4A
41782.40959859,2779248.760,296324.106,9.736,"",0,$GPGGA,014949.00,2507.25461989,N,12127.56247437,E,2,08,1.1,9.736,M,14.904,M,6.2,0630*43
41782.40961016,2779249.371,296323.858,9.717,"",0,$GPGGA,014950.00,2507.25495158,N,12127.56232798,E,2,08,1.1,9.717,M,14.904,M,6.0,0630*41
41782.40962174,2779250.005,296323.556,9.696,"",0,$GPGGA,014951.00,2507.25529540,N,12127.56214987,E,2,08,1.1,9.696,M,14.904,M,5.8,0630*4C
41782.40963331,2779250.646,296323.257,9.701,"",0,$GPGGA,014952.00,2507.25564307,N,12127.56197337,E,2,08,1.1,9.701,M,14.904,M,6.2,0630*4C
41782.40964488,2779251.275,296322.979,9.717,"",0,$GPGGA,014953.00,2507.25598453,N,12127.56180913,E,2,08,1.1,9.717,M,14.904,M,7.2,0630*44
41782.40965646,2779251.916,296322.687,9.701,"",0,$GPGGA,014954.00,2507.25633210,N,12127.56163636,E,2,08,1.1,9.701,M,14.904,M,7.0,0630*40
41782.40966803,2779252.547,296322.393,9.679,"",0,$GPGGA,014955.00,2507.25667469,N,12127.56146272,E,2,08,1.1,9.679,M,14.904,M,5.0,0630*47
41782.40967961,2779253.190,296322.083,9.675,"",0,$GPGGA,014956.00,2507.25702329,N,12127.56127991,E,2,08,1.1,9.675,M,14.904,M,4.8,0630*41
41782.40969118,2779253.831,296321.789,9.672,"",0,$GPGGA,014957.00,2507.25737138,N,12127.56110614,E,2,08,1.1,9.672,M,14.904,M,5.2,0630*4E
41782.40970275,2779254.463,296321.510,9.660,"",0,$GPGGA,014958.00,2507.25771383,N,12127.56094176,E,2,08,1.1,9.660,M,14.904,M,5.0,0630*4E
41782.40971433,2779255.116,296321.218,9.634,"",0,$GPGGA,014959.00,2507.25806819,N,12127.56076914,E,2,08,1.1,9.634,M,14.904,M,4.8,0630*40
41782.40972590,2779255.772,296320.926,9.624,"",0,$GPGGA,015000.00,2507.25842425,N,12127.56059689,E,2,08,1.1,9.624,M,14.904,M,5.2,0630*4B
41782.40973748,2779256.419,296320.640,9.619,"",0,$GPGGA,015001.00,2507.25877501,N,12127.56042779,E,2,08,1.1,9.619,M,14.904,M,5.0,0630*43
41782.40974905,2779257.070,296320.360,9.623,"",0,$GPGGA,015002.00,2507.25912836,N,12127.56026245,E,2,08,1.1,9.623,M,14.904,M,4.8,0630*43
41782.40976062,2779257.727,296320.062,9.623,"",0,$GPGGA,015003.00,2507.25948470,N,12127.56008652,E,2,08,1.1,9.623,M,14.904,M,5.8,0630*4C
41782.40977220,2779258.387,296319.780,9.633,"",0,$GPGGA,015004.00,2507.25984260,N,12127.55992028,E,2,08,1.1,9.633,M,14.904,M,6.8,0630*4C
41782.40978377,2779259.055,296319.486,9.629,"",0,$GPGGA,015005.00,2507.26020540,N,12127.55974627,E,2,08,1.1,9.629,M,14.904,M,7.8,0630*47
41782.40979535,2779259.732,296319.188,9.627,"",0,$GPGGA,015006.00,2507.26057243,N,12127.55957040,E,2,08,1.1,9.627,M,14.904,M,8.8,0630*47
41782.40980692,2779260.412,296318.893,9.630,"",0,$GPGGA,015007.00,2507.26094112,N,12127.55939644,E,2,08,1.1,9.630,M,14.904,M,9.2,0630*49
41782.40981850,2779261.084,296318.612,9.594,"",0,$GPGGA,015008.00,2507.26130596,N,12127.55923043,E,2,08,1.1,9.594,M,14.904,M,6.0,0630*4B
41782.40983007,2779261.775,296318.309,9.582,"",0,$GPGGA,015009.00,2507.26168047,N,12127.55905167,E,2,08,1.1,9.582,M,14.904,M,7.0,0630*4B
41782.40984164,2779262.459,296318.009,9.587,"",0,$GPGGA,015010.00,2507.26205162,N,12127.55887465,E,2,08,1.1,9.587,M,14.904,M,8.0,0630*4B
41782.40985322,2779263.165,296317.697,9.580,"",0,$GPGGA,015011.00,2507.26243488,N,12127.55869074,E,2,08,1.1,9.580,M,14.904,M,9.0,0630*4B
41782.40986479,2779263.862,296317.398,9.562,"",0,$GPGGA,015012.00,2507.26281307,N,12127.55851397,E,2,08,1.1,9.562,M,14.903,M,5.8,0630*4C
41782.40987637,2779264.556,296317.088,9.572,"",0,$GPGGA,015013.00,2507.26318952,N,12127.55833107,E,2,08,1.1,9.572,M,14.903,M,6.8,0630*4B
41782.40988794,2779265.253,296316.797,9.570,"",0,$GPGGA,015014.00,2507.26356724,N,12127.55815915,E,2,08,1.1,9.570,M,14.903,M,6.0,0630*4C
41782.40989951,2779265.959,296316.498,9.568,"",0,$GPGGA,015015.00,2507.26395034,N,12127.55798282,E,2,08,1.1,9.568,M,14.903,M,5.8,0630*49
41782.40991109,2779266.668,296316.218,9.554,"",0,$GPGGA,015016.00,2507.26433484,N,12127.55781768,E,2,08,1.1,9.554,M,14.903,M,6.2,0630*41
41782.40992266,2779267.374,296315.930,9.562,"",0,$GPGGA,015017.00,2507.26471797,N,12127.55764742,E,2,08,1.1,9.562,M,14.903,M,6.0,0630*43
41782.40993424,2779268.096,296315.631,9.553,"",0,$GPGGA,015018.00,2507.26510955,N,12127.55747102,E,2,08,1.1,9.553,M,14.903,M,5.8,0630*40
41782.40994581,2779268.816,296315.332,9.533,"",0,$GPGGA,015019.00,2507.26550020,N,12127.55729465,E,2,08,1.1,9.533,M,14.903,M,6.2,0630*4D
41782.40995738,2779269.528,296315.032,9.535,"",0,$GPGGA,015020.00,2507.26588659,N,12127.55711753,E,2,08,1.1,9.535,M,14.903,M,6.0,0630*43
41782.40996896,2779270.230,296314.734,9.549,"",0,$GPGGA,015021.00,2507.26626708,N,12127.55694176,E,2,08,1.1,9.549,M,14.903,M,5.8,0630*4D
41782.40998053,2779270.930,296314.445,9.539,"",0,$GPGGA,015022.00,2507.26664681,N,12127.55677146,E,2,08,1.1,9.539,M,14.903,M,6.8,0630*42
41782.40999211,2779271.650,296314.142,9.548,"",0,$GPGGA,015023.00,2507.26703773,N,12127.55659265,E,2,08,1.1,9.548,M,14.903,M,7.8,0630*46
41782.41000368,2779272.375,296313.855,9.553,"",0,$GPGGA,015024.00,2507.26743052,N,12127.55642309,E,2,08,1.1,9.553,M,14.903,M,8.8,0630*45
41782.41001525,2779273.084,296313.576,9.562,"",0,$GPGGA,015025.00,2507.26781537,N,12127.55625871,E,2,08,1.1,9.562,M,14.903,M,9.8,0630*4A
41782.41002683,2779273.816,296313.277,9.560,"",0,$GPGGA,015026.00,2507.26821250,N,12127.55608201,E,2,08,1.1,9.560,M,14.903,M,10.8,0630*72
41782.41003840,2779274.530,296313.001,9.544,"",0,$GPGGA,015027.00,2507.26859965,N,12127.55591951,E,2,08,1.1,9.544,M,14.903,M,11.8,0630*7B
41782.41004998,2779275.264,296312.723,9.533,"",0,$GPGGA,015028.00,2507.26899791,N,12127.55575559,E,2,08,1.1,9.533,M,14.903,M,12.2,0630*7A
41782.41006155,2779276.009,296312.442,9.518,"",0,$GPGGA,015029.00,2507.26940186,N,12127.55558982,E,2,08,1.1,9.518,M,14.903,M,4.8,0630*4F
41782.41007313,2779276.739,296312.167,9.490,"",0,$GPGGA,015030.00,2507.26979773,N,12127.55542765,E,2,08,1.1,9.490,M,14.903,M,5.2,0630*47
41782.41008470,2779277.471,296311.889,9.465,"",0,$GPGGA,015031.00,2507.27019452,N,12127.55526397,E,2,08,1.1,9.465,M,14.903,M,5.0,0630*4B
41782.41009627,2779278.192,296311.618,9.483,"",0,$GPGGA,015032.00,2507.27058592,N,12127.55510430,E,2,08,1.1,9.483,M,14.903,M,4.8,0630*4E
41782.41010785,2779278.909,296311.350,9.480,"",0,$GPGGA,015033.00,2507.27097474,N,12127.55494617,E,2,08,1.1,9.480,M,14.903,M,5.2,0630*47
41782.41011942,2779279.636,296311.073,9.450,"",0,$GPGGA,015034.00,2507.27136911,N,12127.55478241,E,2,08,1.1,9.450,M,14.903,M,5.0,0630*4E
41782.41013100,2779280.352,296310.811,9.457,"",0,$GPGGA,015035.00,2507.27175751,N,12127.55462798,E,2,08,1.1,9.457,M,14.903,M,4.8,0630*46
41782.41014257,2779281.095,296310.516,9.468,"",0,$GPGGA,015036.00,2507.27216007,N,12127.55445425,E,2,08,1.1,9.468,M,14.903,M,5.8,0630*4A
41782.41015414,2779281.836,296310.240,9.445,"",0,$GPGGA,015037.00,2507.27256228,N,12127.55429177,E,2,08,1.1,9.445,M,14.903,M,6.2,0630*4E
41782.41016572,2779282.553,296309.989,9.436,"",0,$GPGGA,015038.00,2507.27295095,N,12127.55414387,E,2,08,1.1,9.436,M,14.903,M,6.0,0630*4F
41782.41017729,2779283.296,296309.705,9.444,"",0,$GPGGA,015039.00,2507.27335412,N,12127.55397590,E,2,08,1.1,9.444,M,14.903,M,5.8,0630*4C
41782.41018887,2779284.017,296309.455,9.419,"",0,$GPGGA,015040.00,2507.27374478,N,12127.55382877,E,2,08,1.1,9.419,M,14.903,M,6.2,0630*4A
41782.41020044,2779284.746,296309.182,9.388,"",0,$GPGGA,015041.00,2507.27414031,N,12127.55366780,E,2,08,1.1,9.388,M,14.903,M,6.0,0630*43
41782.41021201,2779285.477,296308.913,9.395,"",0,$GPGGA,015042.00,2507.27453681,N,12127.55350951,E,2,08,1.1,9.395,M,14.903,M,7.0,0630*44
41782.41022359,2779286.220,296308.628,9.370,"",0,$GPGGA,015043.00,2507.27494006,N,12127.55334133,E,2,08,1.1,9.370,M,14.903,M,8.0,0630*4D
41782.41023516,2779286.954,296308.356,9.354,"",0,$GPGGA,015044.00,2507.27533798,N,12127.55318117,E,2,08,1.1,9.354,M,14.903,M,9.0,0630*49
41782.41024674,2779287.685,296308.074,9.378,"",0,$GPGGA,015045.00,2507.27573448,N,12127.55301461,E,2,08,1.1,9.378,M,14.903,M,5.2,0630*4E
41782.41025831,2779288.417,296307.776,9.386,"",0,$GPGGA,015046.00,2507.27613163,N,12127.55283873,E,2,08,1.1,9.386,M,14.903,M,6.2,0630*42
41782.41026988,2779289.151,296307.492,9.403,"",0,$GPGGA,015047.00,2507.27652948,N,12127.55267148,E,2,08,1.1,9.403,M,14.903,M,6.0,0630*44
41782.41028146,2779289.902,296307.226,9.408,"",0,$GPGGA,015048.00,2507.27693692,N,12127.55251483,E,2,08,1.1,9.408,M,14.903,M,5.8,0630*49
41782.41029303,2779290.660,296306.959,9.395,"",0,$GPGGA,015049.00,2507.27734804,N,12127.55235711,E,2,08,1.1,9.395,M,14.903,M,6.2,0630*45
41782.41030461,2779291.423,296306.690,9.381,"",0,$GPGGA,015050.00,2507.27776151,N,12127.55219855,E,2,08,1.1,9.381,M,14.903,M,6.0,0630*44
41782.41031618,2779292.150,296306.399,9.389,"",0,$GPGGA,015051.00,2507.27815612,N,12127.55202682,E,2,08,1.1,9.389,M,14.903,M,5.8,0630*42
41782.41032775,2779292.882,296306.102,9.396,"",0,$GPGGA,015052.00,2507.27855304,N,12127.55185212,E,2,08,1.1,9.396,M,14.903,M,6.2,0630*41
41782.41033933,2779293.613,296305.805,9.383,"",0,$GPGGA,015053.00,2507.27894943,N,12127.55167690,E,2,08,1.1,9.383,M,14.903,M,6.0,0630*40
41782.41035090,2779294.353,296305.547,9.391,"",0,$GPGGA,015054.00,2507.27935116,N,12127.55152481,E,2,08,1.1,9.391,M,14.903,M,5.8,0630*49
41782.41036248,2779295.103,296305.254,9.392,"",0,$GPGGA,015055.00,2507.27975791,N,12127.55135178,E,2,08,1.1,9.392,M,14.903,M,6.8,0630*47
41782.41037405,2779295.832,296304.983,9.394,"",0,$GPGGA,015056.00,2507.28015325,N,12127.55119232,E,2,08,1.1,9.394,M,14.903,M,7.8,0630*4B
41782.41038563,2779296.589,296304.661,9.394,"",0,$GPGGA,015057.00,2507.28056365,N,12127.55100171,E,2,08,1.1,9.394,M,14.903,M,8.8,0630*4A
41782.41039720,2779297.329,296304.346,9.406,"",0,$GPGGA,015058.00,2507.28096547,N,12127.55081619,E,2,08,1.1,9.406,M,14.903,M,6.2,0630*46
41782.41040877,2779298.085,296304.055,9.395,"",0,$GPGGA,015059.00,2507.28137554,N,12127.55064426,E,2,08,1.1,9.395,M,14.903,M,6.0,0630*45
41782.41042035,2779298.838,296303.757,9.361,"",0,$GPGGA,015100.00,2507.28178348,N,12127.55046896,E,2,08,1.1,9.361,M,14.903,M,5.8,0630*4F
41782.41043192,2779299.580,296303.472,9.363,"",0,$GPGGA,015101.00,2507.28218591,N,12127.55030067,E,2,08,1.1,9.363,M,14.903,M,6.2,0630*45
41782.41044350,2779300.343,296303.167,9.345,"",0,$GPGGA,015102.00,2507.28260005,N,12127.55012057,E,2,08,1.1,9.345,M,14.903,M,7.2,0630*47
41782.41045507,2779301.085,296302.839,9.325,"",0,$GPGGA,015103.00,2507.28300266,N,12127.54992724,E,2,08,1.1,9.325,M,14.903,M,7.0,0630*41
41782.41046664,2779301.840,296302.525,9.328,"",0,$GPGGA,015104.00,2507.28341223,N,12127.54974188,E,2,08,1.1,9.328,M,14.903,M,8.0,0630*48
41782.41047822,2779302.601,296302.215,9.331,"",0,$GPGGA,015105.00,2507.28382499,N,12127.54955868,E,2,08,1.1,9.331,M,14.903,M,9.0,0630*4C
41782.41048979,2779303.362,296301.901,9.304,"",0,$GPGGA,015106.00,2507.28423779,N,12127.54937385,E,2,08,1.1,9.304,M,14.903,M,10.0,0630*7C
41782.41050137,2779304.127,296301.577,9.312,"",0,$GPGGA,015107.00,2507.28465265,N,12127.54918219,E,2,08,1.1,9.312,M,14.903,M,6.2,0630*4C
41782.41051294,2779304.879,296301.252,9.336,"",0,$GPGGA,015108.00,2507.28506082,N,12127.54899036,E,2,08,1.1,9.336,M,14.902,M,6.0,0630*4E
41782.41052451,2779305.629,296300.925,9.357,"",0,$GPGGA,015109.00,2507.28546764,N,12127.54879775,E,2,08,1.1,9.357,M,14.902,M,5.8,0630*46
41782.41053609,2779306.372,296300.591,9.356,"",0,$GPGGA,015110.00,2507.28587043,N,12127.54860050,E,2,08,1.1,9.356,M,14.902,M,6.2,0630*41
41782.41054766,2779307.136,296300.273,9.358,"",0,$GPGGA,015111.00,2507.28628484,N,12127.54841250,E,2,08,1.1,9.358,M,14.902,M,6.0,0630*44
41782.41055924,2779307.892,296299.971,9.353,"",0,$GPGGA,015112.00,2507.28669521,N,12127.54823433,E,2,08,1.1,9.353,M,14.902,M,5.8,0630*4B
